{
  "type": "FeatureCollection",
  "features": [
    {
      "type": "Feature",
      "properties": {
        "title": "Amsterdam",
        "image": "",
        "url": "/travel/Amsterdam/",
        "year": "2018",
        "marker-size": "small",
        "marker-color": "#9900cc"
      },
      "geometry": { 
        "type": "Point",
        "coordinates": [4.900589,52.378795]
      }
    },
    {
      "type": "Feature",
      "properties": {
        "title": "Atomium, Brussels",
        "image": "",
        "url": "/travel/Atomium,%20Brussels/",
        "year": "2018",
        "marker-size": "small",
        "marker-color": "#9900cc"
      },
      "geometry": { 
        "type": "Point",
        "coordinates": [4.34166,50.894913]
      }
    },
    {
      "type": "Feature",
      "properties": {
        "title": "Bateson Hall",
        "image": "",
        "url": "/travel/Bateson%20Hall/",
        "year": "2018",
        "marker-size": "small",
        "marker-color": "#9900cc"
      },
      "geometry": { 
        "type": "Point",
        "coordinates": [-1.090822,50.79634]
      }
    },
    {
      "type": "Feature",
      "properties": {
        "title": "Berlin",
        "image": "",
        "url": "/travel/Berlin/",
        "year": "2018",
        "marker-size": "small",
        "marker-color": "#9900cc"
      },
      "geometry": { 
        "type": "Point",
        "coordinates": [13.410788,52.521509]
      }
    },
    {
      "type": "Feature",
      "properties": {
        "title": "Biarritz",
        "image": "",
        "url": "/travel/Biarritz/",
        "year": "2018",
        "marker-size": "small",
        "marker-color": "#9900cc"
      },
      "geometry": { 
        "type": "Point",
        "coordinates": [-1.566753,43.483816]
      }
    },
    {
      "type": "Feature",
      "properties": {
        "title": "Brookemeadow",
        "image": "",
        "url": "/travel/Brookemeadow/",
        "year": "2018",
        "marker-size": "small",
        "marker-color": "#9900cc"
      },
      "geometry": { 
        "type": "Point",
        "coordinates": [-3.941281,50.790843]
      }
    },
    {
      "type": "Feature",
      "properties": {
        "title": "Calais",
        "image": "",
        "url": "/travel/Calais/",
        "year": "2018",
        "marker-size": "small",
        "marker-color": "#9900cc"
      },
      "geometry": { 
        "type": "Point",
        "coordinates": [1.85051,50.953561]
      }
    },
    {
      "type": "Feature",
      "properties": {
        "title": "Camping Village Jolly",
        "image": "",
        "url": "/travel/Camping%20Village%20Jolly/",
        "year": "2018",
        "marker-size": "small",
        "marker-color": "#9900cc"
      },
      "geometry": { 
        "type": "Point",
        "coordinates": [12.211229,45.471425]
      }
    },
    {
      "type": "Feature",
      "properties": {
        "title": "Corfu",
        "image": "",
        "url": "/travel/Corfu/",
        "year": "2018",
        "marker-size": "small",
        "marker-color": "#9900cc"
      },
      "geometry": { 
        "type": "Point",
        "coordinates": [19.852338,39.546511]
      }
    },
    {
      "type": "Feature",
      "properties": {
        "title": "Fiuggi",
        "image": "",
        "url": "/travel/Fiuggi/",
        "year": "2018",
        "marker-size": "small",
        "marker-color": "#9900cc"
      },
      "geometry": { 
        "type": "Point",
        "coordinates": [13.22755,41.787089]
      }
    },
    {
      "type": "Feature",
      "properties": {
        "title": "Fratton",
        "image": "",
        "url": "/travel/Fratton/",
        "year": "2018",
        "marker-size": "small",
        "marker-color": "#9900cc"
      },
      "geometry": { 
        "type": "Point",
        "coordinates": [-1.075308,50.801134]
      }
    },
    {
      "type": "Feature",
      "properties": {
        "title": "Gamlavaerket",
        "image": "",
        "url": "/travel/Gamlavaerket/",
        "year": "2018",
        "marker-size": "small",
        "marker-color": "#9900cc"
      },
      "geometry": { 
        "type": "Point",
        "coordinates": [5.736408,58.852631]
      }
    },
    {
      "type": "Feature",
      "properties": {
        "title": "Gros Morne National Park",
        "image": "",
        "url": "/travel/Gros%20Morne%20National%20Park/",
        "year": "2018",
        "marker-size": "small",
        "marker-color": "#9900cc"
      },
      "geometry": { 
        "type": "Point",
        "coordinates": [-57.727661,49.61249]
      }
    },
    {
      "type": "Feature",
      "properties": {
        "title": "Halifax",
        "image": "",
        "url": "/travel/Halifax/",
        "year": "2018",
        "marker-size": "small",
        "marker-color": "#9900cc"
      },
      "geometry": { 
        "type": "Point",
        "coordinates": [-64.530859,44.881782]
      }
    },
    {
      "type": "Feature",
      "properties": {
        "title": "Iguazu Falls",
        "image": "",
        "url": "/travel/Iguazu%20Falls/",
        "year": "2018",
        "marker-size": "small",
        "marker-color": "#9900cc"
      },
      "geometry": { 
        "type": "Point",
        "coordinates": [-54.436312,-25.69506]
      }
    },
    {
      "type": "Feature",
      "properties": {
        "title": "Kefalonia",
        "image": "",
        "url": "/travel/Kefalonia/",
        "year": "2018",
        "marker-size": "small",
        "marker-color": "#9900cc"
      },
      "geometry": { 
        "type": "Point",
        "coordinates": [20.634073,38.113769]
      }
    },
    {
      "type": "Feature",
      "properties": {
        "title": "La Rochelle",
        "image": "",
        "url": "/travel/La%20Rochelle/",
        "year": "2018",
        "marker-size": "small",
        "marker-color": "#9900cc"
      },
      "geometry": { 
        "type": "Point",
        "coordinates": [-0.940576,46.444134]
      }
    },
    {
      "type": "Feature",
      "properties": {
        "title": "Livramento",
        "image": "",
        "url": "/travel/Livramento/",
        "year": "2018",
        "marker-size": "small",
        "marker-color": "#9900cc"
      },
      "geometry": { 
        "type": "Point",
        "coordinates": [-55.54018,-30.888673]
      }
    },
    {
      "type": "Feature",
      "properties": {
        "title": "Madrid",
        "image": "",
        "url": "/travel/Madrid/",
        "year": "2018",
        "marker-size": "small",
        "marker-color": "#9900cc"
      },
      "geometry": { 
        "type": "Point",
        "coordinates": [-3.717585,40.417613]
      }
    },
    {
      "type": "Feature",
      "properties": {
        "title": "Malta",
        "image": "",
        "url": "/travel/Malta/",
        "year": "2018",
        "marker-size": "small",
        "marker-color": "#9900cc"
      },
      "geometry": { 
        "type": "Point",
        "coordinates": [14.39415,35.94591]
      }
    },
    {
      "type": "Feature",
      "properties": {
        "title": "Milan",
        "image": "",
        "url": "/travel/Milan/",
        "year": "2018",
        "marker-size": "small",
        "marker-color": "#9900cc"
      },
      "geometry": { 
        "type": "Point",
        "coordinates": [9.180408,45.469582]
      }
    },
    {
      "type": "Feature",
      "properties": {
        "title": "Monte Carlo",
        "image": "",
        "url": "/travel/Monte%20Carlo/",
        "year": "2018",
        "marker-size": "small",
        "marker-color": "#9900cc"
      },
      "geometry": { 
        "type": "Point",
        "coordinates": [7.419333,43.738701]
      }
    },
    {
      "type": "Feature",
      "properties": {
        "title": "Paris",
        "image": "",
        "url": "/travel/Paris/",
        "year": "2018",
        "marker-size": "small",
        "marker-color": "#9900cc"
      },
      "geometry": { 
        "type": "Point",
        "coordinates": [2.375965,48.843932]
      }
    },
    {
      "type": "Feature",
      "properties": {
        "title": "Sticklepath",
        "image": "",
        "url": "/travel/Point%2032/",
        "year": "2018",
        "marker-size": "small",
        "marker-color": "#9900cc"
      },
      "geometry": { 
        "type": "Point",
        "coordinates": [-3.928001,50.730354]
      }
    },
    {
      "type": "Feature",
      "properties": {
        "title": "Prestatyn Sands",
        "image": "",
        "url": "/travel/Prestatyn%20Sands/",
        "year": "2018",
        "marker-size": "small",
        "marker-color": "#9900cc"
      },
      "geometry": { 
        "type": "Point",
        "coordinates": [-3.405483,53.342007]
      }
    },
    {
      "type": "Feature",
      "properties": {
        "title": "Rome",
        "image": "",
        "url": "/travel/Rome/",
        "year": "2018",
        "marker-size": "small",
        "marker-color": "#9900cc"
      },
      "geometry": { 
        "type": "Point",
        "coordinates": [12.481155,41.895122]
      }
    },
    {
      "type": "Feature",
      "properties": {
        "title": "Salto",
        "image": "",
        "url": "/travel/Salto/",
        "year": "2018",
        "marker-size": "small",
        "marker-color": "#9900cc"
      },
      "geometry": { 
        "type": "Point",
        "coordinates": [-57.968802,-31.387022]
      }
    },
    {
      "type": "Feature",
      "properties": {
        "title": "San Jose",
        "image": "",
        "url": "/travel/San%20Jose/",
        "year": "2018",
        "marker-size": "small",
        "marker-color": "#9900cc"
      },
      "geometry": { 
        "type": "Point",
        "coordinates": [-121.9,37.333333]
      }
    },
    {
      "type": "Feature",
      "properties": {
        "title": "Seaview, Isle of Wight",
        "image": "",
        "url": "/travel/Seaview,%20Isle%20of%20Wight/",
        "year": "2018",
        "marker-size": "small",
        "marker-color": "#9900cc"
      },
      "geometry": { 
        "type": "Point",
        "coordinates": [-1.123888,50.717418]
      }
    },
    {
      "type": "Feature",
      "properties": {
        "title": "Venice",
        "image": "",
        "url": "/travel/Venice/",
        "year": "2018",
        "marker-size": "small",
        "marker-color": "#9900cc"
      },
      "geometry": { 
        "type": "Point",
        "coordinates": [12.338226,45.433967]
      }
    },
    {
      "type": "Feature",
      "properties": {
        "title": "Worcester",
        "image": "",
        "url": "/travel/Worcester/",
        "year": "2018",
        "marker-size": "small",
        "marker-color": "#9900cc"
      },
      "geometry": { 
        "type": "Point",
        "coordinates": [-2.219638,52.189809]
      }
    },
    {
      "type": "Feature",
      "properties": {
        "title": "Alcossebre, Castellón",
        "image": "",
        "url": "/travel/alcossebre/",
        "year": "2018",
        "marker-size": "small",
        "marker-color": "#9900cc"
      },
      "geometry": { 
        "type": "Point",
        "coordinates": [0.2636875,40.2452063]
      }
    },
    {
      "type": "Feature",
      "properties": {
        "title": "Beeston",
        "image": "",
        "url": "/travel/beeston/",
        "year": "2018",
        "marker-size": "small",
        "marker-color": "#9900cc"
      },
      "geometry": { 
        "type": "Point",
        "coordinates": [-1.222916,52.933534]
      }
    },
    {
      "type": "Feature",
      "properties": {
        "title": "Chillán",
        "image": "",
        "url": "/travel/chillan/",
        "year": "2018",
        "marker-size": "small",
        "marker-color": "#9900cc"
      },
      "geometry": { 
        "type": "Point",
        "coordinates": [-72.0565795898437,-36.7014575279178]
      }
    },
    {
      "type": "Feature",
      "properties": {
        "title": "Columbus",
        "image": "",
        "url": "/travel/columbus/",
        "year": "2018",
        "marker-size": "small",
        "marker-color": "#9900cc"
      },
      "geometry": { 
        "type": "Point",
        "coordinates": [-82.9833,39.9833]
      }
    },
    {
      "type": "Feature",
      "properties": {
        "title": "Fréjus",
        "image": "",
        "url": "/travel/frejus/",
        "year": "2018",
        "marker-size": "small",
        "marker-color": "#9900cc"
      },
      "geometry": { 
        "type": "Point",
        "coordinates": [6.737,43.4332]
      }
    },
    {
      "type": "Feature",
      "properties": {
        "title": "Gutersloh",
        "image": "",
        "url": "/travel/gutersloh/",
        "year": "2018",
        "marker-size": "small",
        "marker-color": "#9900cc"
      },
      "geometry": { 
        "type": "Point",
        "coordinates": [8.377504,51.909014]
      }
    },
    {
      "type": "Feature",
      "properties": {
        "title": "Cala Bona, Mallorca",
        "image": "",
        "url": "/travel/mallorca/",
        "year": "2018",
        "marker-size": "small",
        "marker-color": "#9900cc"
      },
      "geometry": { 
        "type": "Point",
        "coordinates": [3.3848646,39.6162877]
      }
    },
    {
      "type": "Feature",
      "properties": {
        "title": "Portchester",
        "image": "portchester.jpg",
        "url": "/travel/portchester/",
        "year": "2018",
        "marker-size": "small",
        "marker-color": "#9900cc"
      },
      "geometry": { 
        "type": "Point",
        "coordinates": [-1.1382,50.8495]
      }
    },
    {
      "type": "Feature",
      "properties": {
        "title": "Raleigh",
        "image": "",
        "url": "/travel/raleigh/",
        "year": "2018",
        "marker-size": "small",
        "marker-color": "#9900cc"
      },
      "geometry": { 
        "type": "Point",
        "coordinates": [-78.6382,35.7796]
      }
    },
    {
      "type": "Feature",
      "properties": {
        "title": "St Keverne",
        "image": "",
        "url": "/travel/st_keverne/",
        "year": "2018",
        "marker-size": "small",
        "marker-color": "#9900cc"
      },
      "geometry": { 
        "type": "Point",
        "coordinates": [-5.090838,50.049248]
      }
    },
    {
      "type": "Feature",
      "properties": {
        "title": "Sticklepath",
        "image": "",
        "url": "/travel/sticklepath/",
        "year": "2018",
        "marker-size": "small",
        "marker-color": "#9900cc"
      },
      "geometry": { 
        "type": "Point",
        "coordinates": [-3.92769,50.730802]
      }
    },
    {
      "type": "Feature",
      "properties": {
        "title": "Swanage",
        "image": "",
        "url": "/travel/swanage/",
        "year": "2018",
        "marker-size": "small",
        "marker-color": "#9900cc"
      },
      "geometry": { 
        "type": "Point",
        "coordinates": [-1.973524,50.606199]
      }
    },
    {
      "type": "Feature",
      "properties": {
        "title": "Camping on the Isle of Wight",
        "image": "",
        "url": "/2005/06/08/camping-on-the-isle-of-wight/",
        "year": "2005",
        "marker-size": "small",
        "marker-color": "#9900cc"
      },
      "geometry": { 
        "type": "Point",
        "coordinates": [-1.5600907,50.6721595]
      }
    }
  ]
}
